{"type":"FeatureCollection","features":[{"type":"Feature","properties":{"City":"Washington, D.C.","Pop_2010":"605,226","Pop_2011":"619,800","Pop_2012":"634,924","Pop_2013":"650,581","Pop_2014":"662,328","Pop_2015":"675,400","Pop_2016":"685,815","Pop_2017":"694,906","Pop_2018":"701,547","Pop_2019":"705,749"},"geometry":{"type":"Point","coordinates":[-77,39]}},{"type":"Feature","properties":{"City":"Fairfax, VA","Pop_2010":"22,614","Pop_2011":"22,460","Pop_2012":"22,894","Pop_2013":"23,230","Pop_2014":"23,310","Pop_2015":"23,230","Pop_2016":"23,246","Pop_2017":"23,435","Pop_2018":"23,725","Pop_2019":"24,019"},"geometry":{"type":"Point","coordinates":[-77.29439,39]}},{"type":"Feature","properties":{"City":"San Francisco, CA","Pop_2010":"805,505","Pop_2011":"815,650","Pop_2012":"828,876","Pop_2013":"839,572","Pop_2014":"850,750","Pop_2015":"863,010","Pop_2016":"871,512","Pop_2017":"878,040","Pop_2018":"880,696","Pop_2019":"881,549"},"geometry":{"type":"Point","coordinates":[-122.431272,37.778008]}},{"type":"Feature","properties":{"City":"Madison, WI","Pop_2010":"233,730","Pop_2011":"236,908","Pop_2012":"239,880","Pop_2013":"243,233","Pop_2014":"245,848","Pop_2015":"248,788","Pop_2016":"252,677","Pop_2017":"255,786","Pop_2018":"257,854","Pop_2019":"259,680"},"geometry":{"type":"Point","coordinates":[-89.395609,43.081309]}},{"type":"Feature","properties":{"City":"New York City, NY","Pop_2010":"8,190,209","Pop_2011":"8,272,948","Pop_2012":"8,346,693","Pop_2013":"8,396,091","Pop_2014":"8,433,806","Pop_2015":"8,463,049","Pop_2016":"8,469,153","Pop_2017":"8,437,478","Pop_2018":"8,390,081","Pop_2019":"8,336,817"},"geometry":{"type":"Point","coordinates":[-73.9708,40.68295]}},{"type":"Feature","properties":{"City":"Los Angeles, CA","Pop_2010":"3,795,512","Pop_2011":"3,820,876","Pop_2012":"3,851,202","Pop_2013":"3,881,622","Pop_2014":"3,909,901","Pop_2015":"3,938,568","Pop_2016":"3,963,226","Pop_2017":"3,975,788","Pop_2018":"3,977,596","Pop_2019":"3,979,576"},"geometry":{"type":"Point","coordinates":[-118.25703,34.05513]}},{"type":"Feature","properties":{"City":"Chicago, IL","Pop_2010":"2,697,477","Pop_2011":"2,708,114","Pop_2012":"2,719,141","Pop_2013":"2,725,731","Pop_2014":"2,727,066","Pop_2015":"2,724,344","Pop_2016":"2,716,723","Pop_2017":"2,711,069","Pop_2018":"2,701,423","Pop_2019":"2,693,976"},"geometry":{"type":"Point","coordinates":[-87.66063,41.87897]}},{"type":"Feature","properties":{"City":"Boston, MA","Pop_2010":"621,048","Pop_2011":"630,505","Pop_2012":"642,955","Pop_2013":"653,002","Pop_2014":"662,855","Pop_2015":"670,491","Pop_2016":"679,848","Pop_2017":"687,788","Pop_2018":"691,147","Pop_2019":"692,600"},"geometry":{"type":"Point","coordinates":[-71.048611,42.355492]}},{"type":"Feature","properties":{"City":"Philadelphia, PA","Pop_2010":"1,528,283","Pop_2011":"1,540,466","Pop_2012":"1,551,824","Pop_2013":"1,558,313","Pop_2014":"1,565,460","Pop_2015":"1,571,065","Pop_2016":"1,576,051","Pop_2017":"1,580,601","Pop_2018":"1,583,592","Pop_2019":"1,584,064"},"geometry":{"type":"Point","coordinates":[-75.168428,39.990821]}},{"type":"Feature","properties":{"City":"San Diego, CA","Pop_2010":"1,305,906","Pop_2011":"1,319,592","Pop_2012":"1,336,776","Pop_2013":"1,355,320","Pop_2014":"1,375,831","Pop_2015":"1,387,323","Pop_2016":"1,402,089","Pop_2017":"1,412,621","Pop_2018":"1,421,917","Pop_2019":"1,423,851"},"geometry":{"type":"Point","coordinates":[-117.15529,32.72793]}},{"type":"Feature","properties":{"City":"San Jose, CA","Pop_2010":"954,940","Pop_2011":"970,369","Pop_2012":"983,530","Pop_2013":"1,001,279","Pop_2014":"1,014,273","Pop_2015":"1,025,980","Pop_2016":"1,030,242","Pop_2017":"1,032,335","Pop_2018":"1,028,020","Pop_2019":"1,021,795"},"geometry":{"type":"Point","coordinates":[-121.883844,37.354559]}},{"type":"Feature","properties":{"City":"Austin, TX","Pop_2010":"806,164","Pop_2011":"828,459","Pop_2012":"854,482","Pop_2013":"875,003","Pop_2014":"901,170","Pop_2015":"921,114","Pop_2016":"939,447","Pop_2017":"951,553","Pop_2018":"962,469","Pop_2019":"978,908"},"geometry":{"type":"Point","coordinates":[-97.836521,30.222346]}},{"type":"Feature","properties":{"City":"Portland, OR","Pop_2010":"585,429","Pop_2011":"595,451","Pop_2012":"604,264","Pop_2013":"609,890","Pop_2014":"620,510","Pop_2015":"631,366","Pop_2016":"642,720","Pop_2017":"647,924","Pop_2018":"650,837","Pop_2019":"654,741"},"geometry":{"type":"Point","coordinates":[-122.650095,45.533467]}},{"type":"Feature","properties":{"City":"Atlanta, GA","Pop_2010":"429,410","Pop_2011":"437,812","Pop_2012":"449,016","Pop_2013":"453,990","Pop_2014":"461,154","Pop_2015":"468,303","Pop_2016":"479,174","Pop_2017":"491,670","Pop_2018":"498,183","Pop_2019":"506,811"},"geometry":{"type":"Point","coordinates":[-84.414581,33.769805]}},{"type":"Feature","properties":{"City":"Pittsburgh, PA","Pop_2010":"305,283","Pop_2011":"306,012","Pop_2012":"306,355","Pop_2013":"306,902","Pop_2014":"305,964","Pop_2015":"304,070","Pop_2016":"304,643","Pop_2017":"301,494","Pop_2018":"300,570","Pop_2019":"300,286"},"geometry":{"type":"Point","coordinates":[-79.936305,40.450509]}}]}

